{"type":"FeatureCollection","bbox":[139.317582,36.839226,141.008259,37.920214],"features":[{"type":"Feature","properties":{"P29_001":"07201","P29_002":"16","P29_003":"16002","P29_004":"16002","P29_005":"岳陽中学校","P29_006":"須川町1-33","P29_007":3,"label":"岳陽中"},"geometry":{"type":"Point","coordinates":[140.454402,37.751067]}},{"type":"Feature","properties":{"P29_001":"07201","P29_002":"16","P29_003":"16002","P29_004":"16002","P29_005":"吾妻中学校","P29_006":"町庭坂原田8","P29_007":3,"label":"吾妻中"},"geometry":{"type":"Point","coordinates":[140.377743,37.76412]}},{"type":"Feature","properties":{"P29_001":"07201","P29_002":"16","P29_003":"16002","P29_004":"16002","P29_005":"桜の聖母学院中学校","P29_006":"野田町7-11-1","P29_007":4,"label":"桜の聖母学院中"},"geometry":{"type":"Point","coordinates":[140.444403,37.760788]}},{"type":"Feature","properties":{"P29_001":"07201","P29_002":"16","P29_003":"16002","P29_004":"16002","P29_005":"松陵中学校","P29_006":"松川町上桜内3-4","P29_007":3,"label":"松陵中"},"geometry":{"type":"Point","coordinates":[140.461628,37.656355]}},{"type":"Feature","properties":{"P29_001":"07201","P29_002":"16","P29_003":"16002","P29_004":"16002","P29_005":"信夫中学校","P29_006":"大森南内町31-1","P29_007":3,"label":"信夫中"},"geometry":{"type":"Point","coordinates":[140.436349,37.723292]}},{"type":"Feature","properties":{"P29_001":"07201","P29_002":"16","P29_003":"16002","P29_004":"16002","P29_005":"信陵中学校","P29_006":"笹谷島原2","P29_007":3,"label":"信陵中"},"geometry":{"type":"Point","coordinates":[140.432458,37.789396]}},{"type":"Feature","properties":{"P29_001":"07201","P29_002":"16","P29_003":"16002","P29_004":"16002","P29_005":"清水中学校","P29_006":"南沢又清水端23","P29_007":3,"label":"清水中"},"geometry":{"type":"Point","coordinates":[140.43607,37.772453]}},{"type":"Feature","properties":{"P29_001":"07201","P29_002":"16","P29_003":"16002","P29_004":"16002","P29_005":"西根中学校","P29_006":"飯坂町湯野大平2","P29_007":3,"label":"西根中"},"geometry":{"type":"Point","coordinates":[140.466621,37.832725]}},{"type":"Feature","properties":{"P29_001":"07201","P29_002":"16","P29_003":"16002","P29_004":"16002","P29_005":"西信中学校","P29_006":"上名倉道上6","P29_007":3,"label":"西信中"},"geometry":{"type":"Point","coordinates":[140.385522,37.727457]}},{"type":"Feature","properties":{"P29_001":"07201","P29_002":"16","P29_003":"16002","P29_004":"16002","P29_005":"大鳥中学校","P29_006":"飯坂町館11","P29_007":3,"label":"大鳥中"},"geometry":{"type":"Point","coordinates":[140.44501,37.831041]}},{"type":"Feature","properties":{"P29_001":"07201","P29_002":"16","P29_003":"16002","P29_004":"16002","P29_005":"渡利中学校","P29_006":"渡利平内町106","P29_007":3,"label":"渡利中"},"geometry":{"type":"Point","coordinates":[140.478845,37.745235]}},{"type":"Feature","properties":{"P29_001":"07201","P29_002":"16","P29_003":"16002","P29_004":"16002","P29_005":"飯舘中学校","P29_006":"飯野町明治藤柄13-2","P29_007":3,"label":"飯舘中"},"geometry":{"type":"Point","coordinates":[140.52967063820554,37.66006416987804]}},{"type":"Feature","properties":{"P29_001":"07201","P29_002":"16","P29_003":"16002","P29_004":"16002","P29_005":"飯野中学校","P29_006":"飯野町西志保井1-1","P29_007":3,"label":"飯野中"},"geometry":{"type":"Point","coordinates":[140.53169718773836,37.65877129595032]}},{"type":"Feature","properties":{"P29_001":"07201","P29_002":"16","P29_003":"16002","P29_004":"16002","P29_005":"福島大学附属中学校","P29_006":"浜田町12-26","P29_007":1,"label":"福島大学附属中"},"geometry":{"type":"Point","coordinates":[140.477178,37.758567]}},{"type":"Feature","properties":{"P29_001":"07201","P29_002":"16","P29_003":"16002","P29_004":"16002","P29_005":"福島第一中学校","P29_006":"南町480","P29_007":3,"label":"福島第一中"},"geometry":{"type":"Point","coordinates":[140.463846,37.741068]}},{"type":"Feature","properties":{"P29_001":"07201","P29_002":"16","P29_003":"16002","P29_004":"16002","P29_005":"福島第三中学校","P29_006":"古川44-2","P29_007":3,"label":"福島第三中"},"geometry":{"type":"Point","coordinates":[140.491065,37.776066]}},{"type":"Feature","properties":{"P29_001":"07201","P29_002":"16","P29_003":"16002","P29_004":"16002","P29_005":"福島第四中学校","P29_006":"南平5-8","P29_007":3,"label":"福島第四中"},"geometry":{"type":"Point","coordinates":[140.462179,37.766344]}},{"type":"Feature","properties":{"P29_001":"07201","P29_002":"16","P29_003":"16002","P29_004":"16002","P29_005":"福島第二中学校","P29_006":"桜木町5-20","P29_007":3,"label":"福島第二中"},"geometry":{"type":"Point","coordinates":[140.478566,37.7619]}},{"type":"Feature","properties":{"P29_001":"07201","P29_002":"16","P29_003":"16002","P29_004":"16002","P29_005":"平野中学校","P29_006":"飯坂町平野舘ノ前3-3","P29_007":3,"label":"平野中"},"geometry":{"type":"Point","coordinates":[140.43829,37.803561]}},{"type":"Feature","properties":{"P29_001":"07201","P29_002":"16","P29_003":"16002","P29_004":"16002","P29_005":"蓬來中学校","P29_006":"蓬莱町5-14-1","P29_007":3,"label":"蓬來中"},"geometry":{"type":"Point","coordinates":[140.479958,37.695796]}},{"type":"Feature","properties":{"P29_001":"07201","P29_002":"16","P29_003":"16002","P29_004":"16002","P29_005":"北信中学校","P29_006":"鎌田御仮屋20","P29_007":3,"label":"北信中"},"geometry":{"type":"Point","coordinates":[140.48041,37.798016]}},{"type":"Feature","properties":{"P29_001":"07201","P29_002":"16","P29_003":"16002","P29_004":"16002","P29_005":"茂庭中学校","P29_006":"飯坂町茂庭岡畑9","P29_007":3,"label":"茂庭中"},"geometry":{"type":"Point","coordinates":[140.424675,37.920214]}},{"type":"Feature","properties":{"P29_001":"07201","P29_002":"16","P29_003":"16002","P29_004":"16002","P29_005":"野田中学校","P29_006":"笹木野市街道28-1","P29_007":3,"label":"野田中"},"geometry":{"type":"Point","coordinates":[140.42135,37.76051]}},{"type":"Feature","properties":{"P29_001":"07201","P29_002":"16","P29_003":"16002","P29_004":"16002","P29_005":"立子山中学校","P29_006":"立子山大稲場20","P29_007":3,"label":"立子山中"},"geometry":{"type":"Point","coordinates":[140.517733,37.680798]}},{"type":"Feature","properties":{"P29_001":"07201","P29_002":"16","P29_003":"99999","P29_004":"16002","P29_005":"福島成蹊中学校","P29_006":"腰浜町15-21","P29_007":4,"label":"福島成蹊中"},"geometry":{"type":"Point","coordinates":[140.48190888396263,37.756980532352756]}},{"type":"Feature","properties":{"P29_001":"07202","P29_002":"16","P29_003":"16002","P29_004":"16002","P29_005":"一箕中学校","P29_006":"一箕町八幡堰下70","P29_007":3,"label":"一箕中"},"geometry":{"type":"Point","coordinates":[139.953904,37.516914]}},{"type":"Feature","properties":{"P29_001":"07202","P29_002":"16","P29_003":"16002","P29_004":"16002","P29_005":"河東中学校","P29_006":"河東町広田東116","P29_007":3,"label":"河東中"},"geometry":{"type":"Point","coordinates":[139.938723,37.551719]}},{"type":"Feature","properties":{"P29_001":"07202","P29_002":"16","P29_003":"16002","P29_004":"16002","P29_005":"会津若松ザベリオ学園中学校","P29_006":"西栄町1-18","P29_007":4,"label":"会津若松ザベリオ学園中"},"geometry":{"type":"Point","coordinates":[139.925296,37.492194]}},{"type":"Feature","properties":{"P29_001":"07202","P29_002":"16","P29_003":"16002","P29_004":"16002","P29_005":"大戸中学校","P29_006":"大戸町上三寄香塩211-1","P29_007":3,"label":"大戸中"},"geometry":{"type":"Point","coordinates":[139.93641,37.395817]}},{"type":"Feature","properties":{"P29_001":"07202","P29_002":"16","P29_003":"16002","P29_004":"16002","P29_005":"第一中学校","P29_006":"蚕養町11-1","P29_007":3,"label":"第一中"},"geometry":{"type":"Point","coordinates":[139.935017,37.505526]}},{"type":"Feature","properties":{"P29_001":"07202","P29_002":"16","P29_003":"16002","P29_004":"16002","P29_005":"第五中学校","P29_006":"門田町御山村下314","P29_007":3,"label":"第五中"},"geometry":{"type":"Point","coordinates":[139.925575,37.469974]}},{"type":"Feature","properties":{"P29_001":"07202","P29_002":"16","P29_003":"16002","P29_004":"16002","P29_005":"第三中学校","P29_006":"湯川町4-20","P29_007":3,"label":"第三中"},"geometry":{"type":"Point","coordinates":[139.918908,37.488028]}},{"type":"Feature","properties":{"P29_001":"07202","P29_002":"16","P29_003":"16002","P29_004":"16002","P29_005":"第四中学校","P29_006":"桜町110","P29_007":3,"label":"第四中"},"geometry":{"type":"Point","coordinates":[139.912798,37.481362]}},{"type":"Feature","properties":{"P29_001":"07202","P29_002":"16","P29_003":"16002","P29_004":"16002","P29_005":"第二中学校","P29_006":"城前1-7","P29_007":3,"label":"第二中"},"geometry":{"type":"Point","coordinates":[139.933907,37.491083]}},{"type":"Feature","properties":{"P29_001":"07202","P29_002":"16","P29_003":"16002","P29_004":"16002","P29_005":"第六中学校","P29_006":"神指町黒川湯川東296","P29_007":3,"label":"第六中"},"geometry":{"type":"Point","coordinates":[139.910852,37.511358]}},{"type":"Feature","properties":{"P29_001":"07202","P29_002":"16","P29_003":"16002","P29_004":"16002","P29_005":"北会津中学校","P29_006":"北会津町中荒井2107-1","P29_007":3,"label":"北会津中"},"geometry":{"type":"Point","coordinates":[139.872862,37.496602]}},{"type":"Feature","properties":{"P29_001":"07202","P29_002":"16","P29_003":"16002","P29_004":"16002","P29_005":"湊中学校","P29_006":"湊町共和上馬渡266-1","P29_007":3,"label":"湊中"},"geometry":{"type":"Point","coordinates":[140.010012,37.469142]}},{"type":"Feature","properties":{"P29_001":"07202","P29_002":"16","P29_003":"99999","P29_004":"16002","P29_005":"会津学鳳中学校","P29_006":"一箕町八幡八幡1-1","P29_007":2,"label":"会津学鳳中"},"geometry":{"type":"Point","coordinates":[139.94262267543849,37.51110154843054]}},{"type":"Feature","properties":{"P29_001":"07202","P29_002":"16","P29_003":"99999","P29_004":"16002","P29_005":"大熊中学校","P29_006":"追手町2-41","P29_007":3,"label":"大熊中"},"geometry":{"type":"Point","coordinates":[140.9892596883674,37.409360975335915]}},{"type":"Feature","properties":{"P29_001":"07203","P29_002":"16","P29_003":"16002","P29_004":"16002","P29_005":"逢瀬中学校","P29_006":"逢瀬町多田野長倉山1-1","P29_007":3,"label":"逢瀬中"},"geometry":{"type":"Point","coordinates":[140.271933,37.406656]}},{"type":"Feature","properties":{"P29_001":"07203","P29_002":"16","P29_003":"16002","P29_004":"16002","P29_005":"安積第二中学校","P29_006":"安積町成田兎田向1-1","P29_007":3,"label":"安積第二中"},"geometry":{"type":"Point","coordinates":[140.339985,37.354164]}},{"type":"Feature","properties":{"P29_001":"07203","P29_002":"16","P29_003":"16002","P29_004":"16002","P29_005":"安積中学校","P29_006":"成山町1","P29_007":3,"label":"安積中"},"geometry":{"type":"Point","coordinates":[140.363037,37.365274]}},{"type":"Feature","properties":{"P29_001":"07203","P29_002":"16","P29_003":"16002","P29_004":"16002","P29_005":"喜久田中学校","P29_006":"喜久田町堀之内下上の台19","P29_007":3,"label":"喜久田中"},"geometry":{"type":"Point","coordinates":[140.342759,37.455264]}},{"type":"Feature","properties":{"P29_001":"07203","P29_002":"16","P29_003":"16002","P29_004":"16002","P29_005":"宮城中学校","P29_006":"中田町高倉古御舘178-1","P29_007":3,"label":"宮城中"},"geometry":{"type":"Point","coordinates":[140.445323,37.372541]}},{"type":"Feature","properties":{"P29_001":"07203","P29_002":"16","P29_003":"16002","P29_004":"16002","P29_005":"郡山ザベリオ学園中学校","P29_006":"大槻町古屋敷102","P29_007":4,"label":"郡山ザベリオ学園中"},"geometry":{"type":"Point","coordinates":[140.323317,37.401658]}},{"type":"Feature","properties":{"P29_001":"07203","P29_002":"16","P29_003":"16002","P29_004":"16002","P29_005":"郡山第一中学校","P29_006":"菜根2-1-31","P29_007":3,"label":"郡山第一中"},"geometry":{"type":"Point","coordinates":[140.360536,37.389716]}},{"type":"Feature","properties":{"P29_001":"07203","P29_002":"16","P29_003":"16002","P29_004":"16002","P29_005":"郡山第五中学校","P29_006":"桜木2-20-5","P29_007":3,"label":"郡山第五中"},"geometry":{"type":"Point","coordinates":[140.368312,37.409436]}},{"type":"Feature","properties":{"P29_001":"07203","P29_002":"16","P29_003":"16002","P29_004":"16002","P29_005":"郡山第三中学校","P29_006":"菜根3-1-13","P29_007":3,"label":"郡山第三中"},"geometry":{"type":"Point","coordinates":[140.369702,37.386383]}},{"type":"Feature","properties":{"P29_001":"07203","P29_002":"16","P29_003":"16002","P29_004":"16002","P29_005":"郡山第四中学校","P29_006":"横塚6-25-31","P29_007":3,"label":"郡山第四中"},"geometry":{"type":"Point","coordinates":[140.406644,37.391384]}},{"type":"Feature","properties":{"P29_001":"07203","P29_002":"16","P29_003":"16002","P29_004":"16002","P29_005":"郡山第七中学校","P29_006":"大槻町原田西4","P29_007":3,"label":"郡山第七中"},"geometry":{"type":"Point","coordinates":[140.332762,37.380827]}},{"type":"Feature","properties":{"P29_001":"07203","P29_002":"16","P29_003":"16002","P29_004":"16002","P29_005":"郡山第二中学校","P29_006":"神明町5-10","P29_007":3,"label":"郡山第二中"},"geometry":{"type":"Point","coordinates":[140.373034,37.401104]}},{"type":"Feature","properties":{"P29_001":"07203","P29_002":"16","P29_003":"16002","P29_004":"16002","P29_005":"郡山第六中学校","P29_006":"富田町十文字2","P29_007":3,"label":"郡山第六中"},"geometry":{"type":"Point","coordinates":[140.343593,37.413046]}},{"type":"Feature","properties":{"P29_001":"07203","P29_002":"16","P29_003":"16002","P29_004":"16002","P29_005":"湖南中学校","P29_006":"湖南町三代京塚581-1","P29_007":3,"label":"湖南中"},"geometry":{"type":"Point","coordinates":[140.112783,37.382488]}},{"type":"Feature","properties":{"P29_001":"07203","P29_002":"16","P29_003":"16002","P29_004":"16002","P29_005":"御舘中学校","P29_006":"中田町中津川町田前388","P29_007":3,"label":"御舘中"},"geometry":{"type":"Point","coordinates":[140.512747,37.363057]}},{"type":"Feature","properties":{"P29_001":"07203","P29_002":"16","P29_003":"16002","P29_004":"16002","P29_005":"行健中学校","P29_006":"富久山町久保田大原16","P29_007":3,"label":"行健中"},"geometry":{"type":"Point","coordinates":[140.380255,37.421657]}},{"type":"Feature","properties":{"P29_001":"07203","P29_002":"16","P29_003":"16002","P29_004":"16002","P29_005":"高瀬中学校","P29_006":"田村町上行合北山田1","P29_007":3,"label":"高瀬中"},"geometry":{"type":"Point","coordinates":[140.411089,37.365553]}},{"type":"Feature","properties":{"P29_001":"07203","P29_002":"16","P29_003":"16002","P29_004":"16002","P29_005":"三穂田中学校","P29_006":"三穂田町富岡葛幡20","P29_007":3,"label":"三穂田中"},"geometry":{"type":"Point","coordinates":[140.272214,37.347495]}},{"type":"Feature","properties":{"P29_001":"07203","P29_002":"16","P29_003":"16002","P29_004":"16002","P29_005":"守山中学校","P29_006":"田村町山中団子田177-2","P29_007":3,"label":"守山中"},"geometry":{"type":"Point","coordinates":[140.397476,37.338646]}},{"type":"Feature","properties":{"P29_001":"07203","P29_002":"16","P29_003":"16002","P29_004":"16002","P29_005":"小原田中学校","P29_006":"小原田3-20-41","P29_007":3,"label":"小原田中"},"geometry":{"type":"Point","coordinates":[140.388312,37.380273]}},{"type":"Feature","properties":{"P29_001":"07203","P29_002":"16","P29_003":"16002","P29_004":"16002","P29_005":"西田中学校","P29_006":"西田町鬼生田杉内535","P29_007":3,"label":"西田中"},"geometry":{"type":"Point","coordinates":[140.44386,37.460266]}},{"type":"Feature","properties":{"P29_001":"07203","P29_002":"16","P29_003":"16002","P29_004":"16002","P29_005":"大槻中学校","P29_006":"大槻町西の宮西4-1","P29_007":3,"label":"大槻中"},"geometry":{"type":"Point","coordinates":[140.319942,37.39632]}},{"type":"Feature","properties":{"P29_001":"07203","P29_002":"16","P29_003":"16002","P29_004":"16002","P29_005":"二瀬中学校","P29_006":"田村町栃本大花10","P29_007":3,"label":"二瀬中"},"geometry":{"type":"Point","coordinates":[140.495807,37.302507]}},{"type":"Feature","properties":{"P29_001":"07203","P29_002":"16","P29_003":"16002","P29_004":"16002","P29_005":"日和田中学校","P29_006":"日和田町中林27","P29_007":3,"label":"日和田中"},"geometry":{"type":"Point","coordinates":[140.383033,37.454432]}},{"type":"Feature","properties":{"P29_001":"07203","P29_002":"16","P29_003":"16002","P29_004":"16002","P29_005":"熱海中学校","P29_006":"熱海町玉川阿曽沢山19-2","P29_007":3,"label":"熱海中"},"geometry":{"type":"Point","coordinates":[140.289429,37.484148]}},{"type":"Feature","properties":{"P29_001":"07203","P29_002":"16","P29_003":"16002","P29_004":"16002","P29_005":"富田中学校","P29_006":"富田町細田83-1","P29_007":3,"label":"富田中"},"geometry":{"type":"Point","coordinates":[140.360535,37.421934]}},{"type":"Feature","properties":{"P29_001":"07203","P29_002":"16","P29_003":"16002","P29_004":"16002","P29_005":"片平中学校","P29_006":"片平町大笠松4","P29_007":3,"label":"片平中"},"geometry":{"type":"Point","coordinates":[140.311446,37.421404]}},{"type":"Feature","properties":{"P29_001":"07203","P29_002":"16","P29_003":"16002","P29_004":"16002","P29_005":"緑ケ丘中学校","P29_006":"緑ヶ丘西4-1-1","P29_007":3,"label":"緑ケ丘中"},"geometry":{"type":"Point","coordinates":[140.429943,37.3899]}},{"type":"Feature","properties":{"P29_001":"07203","P29_002":"16","P29_003":"99999","P29_004":"16002","P29_005":"明健中学校","P29_006":"富久山町八山田大森新田70","P29_007":3,"label":"明健中"},"geometry":{"type":"Point","coordinates":[140.38573965899133,37.43058786313339]}},{"type":"Feature","properties":{"P29_001":"07203","P29_002":"16","P29_003":"99999","P29_004":"16002","P29_005":"川内中学校","P29_006":"逢瀬町多田野長倉山1-1（逢瀬中学校内）","P29_007":3,"label":"川内中"},"geometry":{"type":"Point","coordinates":[140.271859,37.40673699996611]}},{"type":"Feature","properties":{"P29_001":"07204","P29_002":"16","P29_003":"16002","P29_004":"16002","P29_005":"永井中学校","P29_006":"三和町下永井大堀174","P29_007":3,"label":"永井中"},"geometry":{"type":"Point","coordinates":[140.763844,37.136145]}},{"type":"Feature","properties":{"P29_001":"07204","P29_002":"16","P29_003":"16002","P29_004":"16002","P29_005":"桶売中学校","P29_006":"川前町下桶売久保田96-2","P29_007":3,"label":"桶売中"},"geometry":{"type":"Point","coordinates":[140.723567,37.247242]}},{"type":"Feature","properties":{"P29_001":"07204","P29_002":"16","P29_003":"16002","P29_004":"16002","P29_005":"貝泊中学校","P29_006":"田人町貝泊久子ノ内35","P29_007":3,"label":"貝泊中"},"geometry":{"type":"Point","coordinates":[140.615808,36.991713]}},{"type":"Feature","properties":{"P29_001":"07204","P29_002":"16","P29_003":"16002","P29_004":"16002","P29_005":"久之浜中学校","P29_006":"久之浜町久之浜大場69","P29_007":3,"label":"久之浜中"},"geometry":{"type":"Point","coordinates":[140.987433,37.145595]}},{"type":"Feature","properties":{"P29_001":"07204","P29_002":"16","P29_003":"16002","P29_004":"16002","P29_005":"玉川中学校","P29_006":"小名浜玉川町西24","P29_007":3,"label":"玉川中"},"geometry":{"type":"Point","coordinates":[140.882449,36.983111]}},{"type":"Feature","properties":{"P29_001":"07204","P29_002":"16","P29_003":"16002","P29_004":"16002","P29_005":"錦中学校","P29_006":"錦町飯盛1","P29_007":3,"label":"錦中"},"geometry":{"type":"Point","coordinates":[140.788299,36.90256]}},{"type":"Feature","properties":{"P29_001":"07204","P29_002":"16","P29_003":"16002","P29_004":"16002","P29_005":"好間中学校","P29_006":"好間町小谷作竹ノ内1","P29_007":3,"label":"好間中"},"geometry":{"type":"Point","coordinates":[140.861617,37.068099]}},{"type":"Feature","properties":{"P29_001":"07204","P29_002":"16","P29_003":"16002","P29_004":"16002","P29_005":"江名中学校","P29_006":"永崎館1","P29_007":3,"label":"江名中"},"geometry":{"type":"Point","coordinates":[140.941241,36.958585]}},{"type":"Feature","properties":{"P29_001":"07204","P29_002":"16","P29_003":"16002","P29_004":"16002","P29_005":"差塩中学校","P29_006":"三和町差塩道添37","P29_007":3,"label":"差塩中"},"geometry":{"type":"Point","coordinates":[140.716625,37.183917]}},{"type":"Feature","properties":{"P29_001":"07204","P29_002":"16","P29_003":"16002","P29_004":"16002","P29_005":"三阪中学校","P29_006":"三和町中三坂腰巻28","P29_007":3,"label":"三阪中"},"geometry":{"type":"Point","coordinates":[140.637465,37.19919]}},{"type":"Feature","properties":{"P29_001":"07204","P29_002":"16","P29_003":"16002","P29_004":"16002","P29_005":"三和中学校","P29_006":"三和町中寺樋ノ口4-2","P29_007":3,"label":"三和中"},"geometry":{"type":"Point","coordinates":[140.722182,37.125034]}},{"type":"Feature","properties":{"P29_001":"07204","P29_002":"16","P29_003":"16002","P29_004":"16002","P29_005":"四倉中学校","P29_006":"四倉町東1-65","P29_007":3,"label":"四倉中"},"geometry":{"type":"Point","coordinates":[140.984656,37.09921]}},{"type":"Feature","properties":{"P29_001":"07204","P29_002":"16","P29_003":"16002","P29_004":"16002","P29_005":"小川中学校","P29_006":"小川町上平竹ノ内63","P29_007":3,"label":"小川中"},"geometry":{"type":"Point","coordinates":[140.857446,37.129203]}},{"type":"Feature","properties":{"P29_001":"07204","P29_002":"16","P29_003":"16002","P29_004":"16002","P29_005":"小白井中学校","P29_006":"川前町小白井将監小屋101","P29_007":3,"label":"小白井中"},"geometry":{"type":"Point","coordinates":[140.708011,37.298624]}},{"type":"Feature","properties":{"P29_001":"07204","P29_002":"16","P29_003":"16002","P29_004":"16002","P29_005":"小名浜第一中学校","P29_006":"小名浜岡小字山田作15","P29_007":3,"label":"小名浜第一中"},"geometry":{"type":"Point","coordinates":[140.896893,36.967281]}},{"type":"Feature","properties":{"P29_001":"07204","P29_002":"16","P29_003":"16002","P29_004":"16002","P29_005":"小名浜第二中学校","P29_006":"小名浜岡小字池袋11","P29_007":3,"label":"小名浜第二中"},"geometry":{"type":"Point","coordinates":[140.91217,36.955894]}},{"type":"Feature","properties":{"P29_001":"07204","P29_002":"16","P29_003":"16002","P29_004":"16002","P29_005":"上遠野中学校","P29_006":"遠野町上遠野根小屋30","P29_007":3,"label":"上遠野中"},"geometry":{"type":"Point","coordinates":[140.750241,37.010603]}},{"type":"Feature","properties":{"P29_001":"07204","P29_002":"16","P29_003":"16002","P29_004":"16002","P29_005":"植田中学校","P29_006":"植田町根小屋25-4","P29_007":3,"label":"植田中"},"geometry":{"type":"Point","coordinates":[140.787187,36.918947]}},{"type":"Feature","properties":{"P29_001":"07204","P29_002":"16","P29_003":"16002","P29_004":"16002","P29_005":"植田東中学校","P29_006":"石塚町国分175-2","P29_007":3,"label":"植田東中"},"geometry":{"type":"Point","coordinates":[140.814683,36.928948]}},{"type":"Feature","properties":{"P29_001":"07204","P29_002":"16","P29_003":"16002","P29_004":"16002","P29_005":"石住中学校","P29_006":"田人町石住貝屋37","P29_007":3,"label":"石住中"},"geometry":{"type":"Point","coordinates":[140.641082,37.033654]}},{"type":"Feature","properties":{"P29_001":"07204","P29_002":"16","P29_003":"16002","P29_004":"16002","P29_005":"赤井中学校","P29_006":"平赤井大門13","P29_007":3,"label":"赤井中"},"geometry":{"type":"Point","coordinates":[140.853283,37.085041]}},{"type":"Feature","properties":{"P29_001":"07204","P29_002":"16","P29_003":"16002","P29_004":"16002","P29_005":"川前中学校","P29_006":"川前町川前中ノ萱25-1","P29_007":3,"label":"川前中"},"geometry":{"type":"Point","coordinates":[140.752732,37.205581]}},{"type":"Feature","properties":{"P29_001":"07204","P29_002":"16","P29_003":"16002","P29_004":"16002","P29_005":"川部中学校","P29_006":"川部町坂下26","P29_007":3,"label":"川部中"},"geometry":{"type":"Point","coordinates":[140.726915,36.903948]}},{"type":"Feature","properties":{"P29_001":"07204","P29_002":"16","P29_003":"16002","P29_004":"16002","P29_005":"泉中学校","P29_006":"泉町玉露吉野作19","P29_007":3,"label":"泉中"},"geometry":{"type":"Point","coordinates":[140.852454,36.962556]}},{"type":"Feature","properties":{"P29_001":"07204","P29_002":"16","P29_003":"16002","P29_004":"16002","P29_005":"草野中学校","P29_006":"平下神谷宿25","P29_007":3,"label":"草野中"},"geometry":{"type":"Point","coordinates":[140.946884,37.070602]}},{"type":"Feature","properties":{"P29_001":"07204","P29_002":"16","P29_003":"16002","P29_004":"16002","P29_005":"大野中学校","P29_006":"四倉町玉山御城204","P29_007":3,"label":"大野中"},"geometry":{"type":"Point","coordinates":[140.937439,37.117262]}},{"type":"Feature","properties":{"P29_001":"07204","P29_002":"16","P29_003":"16002","P29_004":"16002","P29_005":"中央台南中学校","P29_006":"中央台鹿島2-42-1","P29_007":3,"label":"中央台南中"},"geometry":{"type":"Point","coordinates":[140.926301,37.003153]}},{"type":"Feature","properties":{"P29_001":"07204","P29_002":"16","P29_003":"16002","P29_004":"16002","P29_005":"中央台北中学校","P29_006":"中央台飯野5-2-1","P29_007":3,"label":"中央台北中"},"geometry":{"type":"Point","coordinates":[140.91078,37.019774]}},{"type":"Feature","properties":{"P29_001":"07204","P29_002":"16","P29_003":"16002","P29_004":"16002","P29_005":"田人中学校","P29_006":"田人町黒田台1","P29_007":3,"label":"田人中"},"geometry":{"type":"Point","coordinates":[140.702469,36.964219]}},{"type":"Feature","properties":{"P29_001":"07204","P29_002":"16","P29_003":"16002","P29_004":"16002","P29_005":"東日本国際大学附属昌平中学校","P29_006":"平上片寄上ノ内152","P29_007":4,"label":"東日本国際大学附属昌平中"},"geometry":{"type":"Point","coordinates":[140.912749,37.080987]}},{"type":"Feature","properties":{"P29_001":"07204","P29_002":"16","P29_003":"16002","P29_004":"16002","P29_005":"湯本第一中学校","P29_006":"常磐湯本町吹谷11","P29_007":3,"label":"湯本第一中"},"geometry":{"type":"Point","coordinates":[140.84301,37.00616]}},{"type":"Feature","properties":{"P29_001":"07204","P29_002":"16","P29_003":"16002","P29_004":"16002","P29_005":"湯本第三中学校","P29_006":"常磐湯本町高倉150","P29_007":3,"label":"湯本第三中"},"geometry":{"type":"Point","coordinates":[140.832455,37.014215]}},{"type":"Feature","properties":{"P29_001":"07204","P29_002":"16","P29_003":"16002","P29_004":"16002","P29_005":"湯本第二中学校","P29_006":"常磐湯本町上浅貝10","P29_007":3,"label":"湯本第二中"},"geometry":{"type":"Point","coordinates":[140.858008,37.01505]}},{"type":"Feature","properties":{"P29_001":"07204","P29_002":"16","P29_003":"16002","P29_004":"16002","P29_005":"藤間中学校","P29_006":"平藤間千ヶ久保76","P29_007":3,"label":"藤間中"},"geometry":{"type":"Point","coordinates":[140.964384,37.035885]}},{"type":"Feature","properties":{"P29_001":"07204","P29_002":"16","P29_003":"16002","P29_004":"16002","P29_005":"内郷第一中学校","P29_006":"内郷高坂町立野129","P29_007":3,"label":"内郷第一中"},"geometry":{"type":"Point","coordinates":[140.851063,37.043101]}},{"type":"Feature","properties":{"P29_001":"07204","P29_002":"16","P29_003":"16002","P29_004":"16002","P29_005":"内郷第三中学校","P29_006":"内郷高野町中倉82","P29_007":3,"label":"内郷第三中"},"geometry":{"type":"Point","coordinates":[140.795513,37.053654]}},{"type":"Feature","properties":{"P29_001":"07204","P29_002":"16","P29_003":"16002","P29_004":"16002","P29_005":"内郷第二中学校","P29_006":"内郷宮町金坂179","P29_007":3,"label":"内郷第二中"},"geometry":{"type":"Point","coordinates":[140.844119,37.043656]}},{"type":"Feature","properties":{"P29_001":"07204","P29_002":"16","P29_003":"16002","P29_004":"16002","P29_005":"入遠野中学校","P29_006":"遠野町上根本荒神平20","P29_007":3,"label":"入遠野中"},"geometry":{"type":"Point","coordinates":[140.716631,37.032267]}},{"type":"Feature","properties":{"P29_001":"07204","P29_002":"16","P29_003":"16002","P29_004":"16002","P29_005":"磐崎中学校","P29_006":"常磐下湯長谷町家中跡25","P29_007":3,"label":"磐崎中"},"geometry":{"type":"Point","coordinates":[140.844399,36.990328]}},{"type":"Feature","properties":{"P29_001":"07204","P29_002":"16","P29_003":"16002","P29_004":"16002","P29_005":"平第一中学校","P29_006":"平揚土1","P29_007":3,"label":"平第一中"},"geometry":{"type":"Point","coordinates":[140.883282,37.058656]}},{"type":"Feature","properties":{"P29_001":"07204","P29_002":"16","P29_003":"16002","P29_004":"16002","P29_005":"平第三中学校","P29_006":"平谷川瀬吉野作56","P29_007":3,"label":"平第三中"},"geometry":{"type":"Point","coordinates":[140.895225,37.041992]}},{"type":"Feature","properties":{"P29_001":"07204","P29_002":"16","P29_003":"16002","P29_004":"16002","P29_005":"平第二中学校","P29_006":"平鎌田味噌能2","P29_007":3,"label":"平第二中"},"geometry":{"type":"Point","coordinates":[140.90689,37.060045]}},{"type":"Feature","properties":{"P29_001":"07204","P29_002":"16","P29_003":"16002","P29_004":"16002","P29_005":"豊間中学校","P29_006":"平藤間千ヶ久保76（藤間中学校内）","P29_007":3,"label":"豊間中"},"geometry":{"type":"Point","coordinates":[140.964285,37.036035]}},{"type":"Feature","properties":{"P29_001":"07204","P29_002":"16","P29_003":"16002","P29_004":"16002","P29_005":"勿来第一中学校","P29_006":"勿来町窪田伊賀屋敷123","P29_007":3,"label":"勿来第一中"},"geometry":{"type":"Point","coordinates":[140.762468,36.894505]}},{"type":"Feature","properties":{"P29_001":"07204","P29_002":"16","P29_003":"16002","P29_004":"16002","P29_005":"勿来第二中学校","P29_006":"勿来町関田北作6","P29_007":3,"label":"勿来第二中"},"geometry":{"type":"Point","coordinates":[140.783856,36.880897]}},{"type":"Feature","properties":{"P29_001":"07204","P29_002":"16","P29_003":"99999","P29_004":"16002","P29_005":"磐城緑蔭中学校","P29_006":"南白土勝負田11","P29_007":4,"label":"磐城緑蔭中"},"geometry":{"type":"Point","coordinates":[140.90994211603737,37.04423265534563]}},{"type":"Feature","properties":{"P29_001":"07204","P29_002":"16","P29_003":"99999","P29_004":"16002","P29_005":"楢葉中学校","P29_006":"中央台飯野5-6-1","P29_007":3,"label":"楢葉中"},"geometry":{"type":"Point","coordinates":[140.92296351869308,37.02165364498145]}},{"type":"Feature","properties":{"P29_001":"07205","P29_002":"16","P29_003":"16002","P29_004":"16002","P29_005":"五箇中学校","P29_006":"田島結城舘43-2","P29_007":3,"label":"五箇中"},"geometry":{"type":"Point","coordinates":[140.287585,37.114277]}},{"type":"Feature","properties":{"P29_001":"07205","P29_002":"16","P29_003":"16002","P29_004":"16002","P29_005":"大信中学校","P29_006":"大信町屋渋川山70","P29_007":3,"label":"大信中"},"geometry":{"type":"Point","coordinates":[140.243787,37.208319]}},{"type":"Feature","properties":{"P29_001":"07205","P29_002":"16","P29_003":"16002","P29_004":"16002","P29_005":"東中学校","P29_006":"東釜子狐内25","P29_007":3,"label":"東中"},"geometry":{"type":"Point","coordinates":[140.36043,37.102387]}},{"type":"Feature","properties":{"P29_001":"07205","P29_002":"16","P29_003":"16002","P29_004":"16002","P29_005":"東北中学校","P29_006":"泉田南之内1","P29_007":3,"label":"東北中"},"geometry":{"type":"Point","coordinates":[140.255002,37.143075]}},{"type":"Feature","properties":{"P29_001":"07205","P29_002":"16","P29_003":"16002","P29_004":"16002","P29_005":"白河第二中学校","P29_006":"和尚壇2-1","P29_007":3,"label":"白河第二中"},"geometry":{"type":"Point","coordinates":[140.189175,37.128575]}},{"type":"Feature","properties":{"P29_001":"07205","P29_002":"16","P29_003":"16002","P29_004":"16002","P29_005":"白河中央中学校","P29_006":"明戸72-5","P29_007":3,"label":"白河中央中"},"geometry":{"type":"Point","coordinates":[140.222033,37.127659]}},{"type":"Feature","properties":{"P29_001":"07205","P29_002":"16","P29_003":"16002","P29_004":"16002","P29_005":"白河南中学校","P29_006":"白坂愛宕山251","P29_007":3,"label":"白河南中"},"geometry":{"type":"Point","coordinates":[140.19337,37.082803]}},{"type":"Feature","properties":{"P29_001":"07205","P29_002":"16","P29_003":"16002","P29_004":"16002","P29_005":"表郷中学校","P29_006":"表郷番沢柳沼60","P29_007":3,"label":"表郷中"},"geometry":{"type":"Point","coordinates":[140.294155,37.060213]}},{"type":"Feature","properties":{"P29_001":"07207","P29_002":"16","P29_003":"16002","P29_004":"16002","P29_005":"稲田中学校","P29_006":"岩渕岡谷地50","P29_007":3,"label":"稲田中"},"geometry":{"type":"Point","coordinates":[140.32234,37.262871]}},{"type":"Feature","properties":{"P29_001":"07207","P29_002":"16","P29_003":"16002","P29_004":"16002","P29_005":"岩瀬中学校","P29_006":"柱田南谷地前42","P29_007":3,"label":"岩瀬中"},"geometry":{"type":"Point","coordinates":[140.266105,37.317221]}},{"type":"Feature","properties":{"P29_001":"07207","P29_002":"16","P29_003":"16002","P29_004":"16002","P29_005":"小塩江中学校","P29_006":"塩田中丸木85","P29_007":3,"label":"小塩江中"},"geometry":{"type":"Point","coordinates":[140.424702,37.29445]}},{"type":"Feature","properties":{"P29_001":"07207","P29_002":"16","P29_003":"16002","P29_004":"16002","P29_005":"仁井田中学校","P29_006":"仁井田北明石田30","P29_007":3,"label":"仁井田中"},"geometry":{"type":"Point","coordinates":[140.332487,37.332777]}},{"type":"Feature","properties":{"P29_001":"07207","P29_002":"16","P29_003":"16002","P29_004":"16002","P29_005":"西袋中学校","P29_006":"吉美根土橋680","P29_007":3,"label":"西袋中"},"geometry":{"type":"Point","coordinates":[140.338899,37.307044]}},{"type":"Feature","properties":{"P29_001":"07207","P29_002":"16","P29_003":"16002","P29_004":"16002","P29_005":"大東中学校","P29_006":"雨田芳ヶ平62","P29_007":3,"label":"大東中"},"geometry":{"type":"Point","coordinates":[140.422482,37.26362]}},{"type":"Feature","properties":{"P29_001":"07207","P29_002":"16","P29_003":"16002","P29_004":"16002","P29_005":"第一中学校","P29_006":"稲荷町130","P29_007":3,"label":"第一中"},"geometry":{"type":"Point","coordinates":[140.366652,37.279728]}},{"type":"Feature","properties":{"P29_001":"07207","P29_002":"16","P29_003":"16002","P29_004":"16002","P29_005":"第三中学校","P29_006":"朝日田54","P29_007":3,"label":"第三中"},"geometry":{"type":"Point","coordinates":[140.38804,37.278062]}},{"type":"Feature","properties":{"P29_001":"07207","P29_002":"16","P29_003":"16002","P29_004":"16002","P29_005":"第二中学校","P29_006":"岩瀬森46","P29_007":3,"label":"第二中"},"geometry":{"type":"Point","coordinates":[140.372206,37.303059]}},{"type":"Feature","properties":{"P29_001":"07207","P29_002":"16","P29_003":"16002","P29_004":"16002","P29_005":"長沼中学校","P29_006":"志茂六角5","P29_007":3,"label":"長沼中"},"geometry":{"type":"Point","coordinates":[140.239998,37.286113]}},{"type":"Feature","properties":{"P29_001":"07208","P29_002":"16","P29_003":"16002","P29_004":"16002","P29_005":"塩川中学校","P29_006":"塩川町高道1551","P29_007":3,"label":"塩川中"},"geometry":{"type":"Point","coordinates":[139.891605,37.599586]}},{"type":"Feature","properties":{"P29_001":"07208","P29_002":"16","P29_003":"16002","P29_004":"16002","P29_005":"会北中学校","P29_006":"熱塩加納町米岡下台乙839","P29_007":3,"label":"会北中"},"geometry":{"type":"Point","coordinates":[139.862648,37.720013]}},{"type":"Feature","properties":{"P29_001":"07208","P29_002":"16","P29_003":"16002","P29_004":"16002","P29_005":"高郷中学校","P29_006":"高郷町上郷中平94","P29_007":3,"label":"高郷中"},"geometry":{"type":"Point","coordinates":[139.731709,37.607392]}},{"type":"Feature","properties":{"P29_001":"07208","P29_002":"16","P29_003":"16002","P29_004":"16002","P29_005":"山都中学校","P29_006":"山都町上ノ原道西875","P29_007":3,"label":"山都中"},"geometry":{"type":"Point","coordinates":[139.770864,37.644932]}},{"type":"Feature","properties":{"P29_001":"07208","P29_002":"16","P29_003":"16002","P29_004":"16002","P29_005":"第一中学校","P29_006":"谷地田上7573","P29_007":3,"label":"第一中"},"geometry":{"type":"Point","coordinates":[139.875572,37.645231]}},{"type":"Feature","properties":{"P29_001":"07208","P29_002":"16","P29_003":"16002","P29_004":"16002","P29_005":"第三中学校","P29_006":"南原3475","P29_007":3,"label":"第三中"},"geometry":{"type":"Point","coordinates":[139.888626,37.656896]}},{"type":"Feature","properties":{"P29_001":"07208","P29_002":"16","P29_003":"16002","P29_004":"16002","P29_005":"第二中学校","P29_006":"常盤台25","P29_007":3,"label":"第二中"},"geometry":{"type":"Point","coordinates":[139.873905,37.666895]}},{"type":"Feature","properties":{"P29_001":"07209","P29_002":"16","P29_003":"16002","P29_004":"16002","P29_005":"磯部中学校","P29_006":"磯部狐穴647","P29_007":3,"label":"磯部中"},"geometry":{"type":"Point","coordinates":[140.987693,37.761359]}},{"type":"Feature","properties":{"P29_001":"07209","P29_002":"16","P29_003":"16002","P29_004":"16002","P29_005":"玉野中学校","P29_006":"玉野坂口4","P29_007":3,"label":"玉野中"},"geometry":{"type":"Point","coordinates":[140.71577,37.769961]}},{"type":"Feature","properties":{"P29_001":"07209","P29_002":"16","P29_003":"16002","P29_004":"16002","P29_005":"向陽中学校","P29_006":"中野桜町76","P29_007":3,"label":"向陽中"},"geometry":{"type":"Point","coordinates":[140.919364,37.792466]}},{"type":"Feature","properties":{"P29_001":"07209","P29_002":"16","P29_003":"16002","P29_004":"16002","P29_005":"中村第一中学校","P29_006":"中村本町132-1","P29_007":3,"label":"中村第一中"},"geometry":{"type":"Point","coordinates":[140.90711099454126,37.799823383805894]}},{"type":"Feature","properties":{"P29_001":"07209","P29_002":"16","P29_003":"16002","P29_004":"16002","P29_005":"中村第二中学校","P29_006":"和田北迫185-13","P29_007":3,"label":"中村第二中"},"geometry":{"type":"Point","coordinates":[140.946027,37.817464]}},{"type":"Feature","properties":{"P29_001":"07210","P29_002":"16","P29_003":"16002","P29_004":"16002","P29_005":"安達中学校","P29_006":"油井田向100","P29_007":3,"label":"安達中"},"geometry":{"type":"Point","coordinates":[140.465027,37.617133]}},{"type":"Feature","properties":{"P29_001":"07210","P29_002":"16","P29_003":"16002","P29_004":"16002","P29_005":"岩代中学校","P29_006":"西新殿一本木188","P29_007":3,"label":"岩代中"},"geometry":{"type":"Point","coordinates":[140.563847,37.526927]}},{"type":"Feature","properties":{"P29_001":"07210","P29_002":"16","P29_003":"16002","P29_004":"16002","P29_005":"小浜中学校","P29_006":"小浜反町411","P29_007":3,"label":"小浜中"},"geometry":{"type":"Point","coordinates":[140.504684,37.553312]}},{"type":"Feature","properties":{"P29_001":"07210","P29_002":"16","P29_003":"16002","P29_004":"16002","P29_005":"東和中学校","P29_006":"針道大町西1","P29_007":3,"label":"東和中"},"geometry":{"type":"Point","coordinates":[140.571065,37.591087]}},{"type":"Feature","properties":{"P29_001":"07210","P29_002":"16","P29_003":"16002","P29_004":"16002","P29_005":"二本松第一中学校","P29_006":"郭内2-56-1","P29_007":3,"label":"二本松第一中"},"geometry":{"type":"Point","coordinates":[140.440244,37.601917]}},{"type":"Feature","properties":{"P29_001":"07210","P29_002":"16","P29_003":"16002","P29_004":"16002","P29_005":"二本松第三中学校","P29_006":"大作165","P29_007":3,"label":"二本松第三中"},"geometry":{"type":"Point","coordinates":[140.411359,37.57192]}},{"type":"Feature","properties":{"P29_001":"07210","P29_002":"16","P29_003":"16002","P29_004":"16002","P29_005":"二本松第二中学校","P29_006":"沖3-301","P29_007":3,"label":"二本松第二中"},"geometry":{"type":"Point","coordinates":[140.466631,37.568588]}},{"type":"Feature","properties":{"P29_001":"07210","P29_002":"16","P29_003":"16002","P29_004":"16002","P29_005":"浪江中学校","P29_006":"針道堤崎25","P29_007":3,"label":"浪江中"},"geometry":{"type":"Point","coordinates":[140.5763988839626,37.59820753937176]}},{"type":"Feature","properties":{"P29_001":"07210","P29_002":"16","P29_003":"99999","P29_004":"16002","P29_005":"津島中学校（休校中）","P29_006":"下川崎三島台1（旧下川崎幼稚園内）","P29_007":3,"label":"津島中学校（休校中）"},"geometry":{"type":"Point","coordinates":[140.501631,37.63815]}},{"type":"Feature","properties":{"P29_001":"07211","P29_002":"16","P29_003":"16002","P29_004":"16002","P29_005":"移中学校","P29_006":"船引町上移橋本125","P29_007":3,"label":"移中"},"geometry":{"type":"Point","coordinates":[140.650671,37.51168]}},{"type":"Feature","properties":{"P29_001":"07211","P29_002":"16","P29_003":"16002","P29_004":"16002","P29_005":"常葉中学校","P29_006":"常葉町常葉上野175","P29_007":3,"label":"常葉中"},"geometry":{"type":"Point","coordinates":[140.643985,37.441028]}},{"type":"Feature","properties":{"P29_001":"07211","P29_002":"16","P29_003":"16002","P29_004":"16002","P29_005":"船引中学校","P29_006":"船引町船引東部台2-1","P29_007":3,"label":"船引中"},"geometry":{"type":"Point","coordinates":[140.580904,37.441634]}},{"type":"Feature","properties":{"P29_001":"07211","P29_002":"16","P29_003":"16002","P29_004":"16002","P29_005":"船引南中学校","P29_006":"船引町堀越丸森70","P29_007":3,"label":"船引南中"},"geometry":{"type":"Point","coordinates":[140.572411,37.397325]}},{"type":"Feature","properties":{"P29_001":"07211","P29_002":"16","P29_003":"16002","P29_004":"16002","P29_005":"大越中学校","P29_006":"大越町上大越古町230","P29_007":3,"label":"大越中"},"geometry":{"type":"Point","coordinates":[140.626411,37.389124]}},{"type":"Feature","properties":{"P29_001":"07211","P29_002":"16","P29_003":"16002","P29_004":"16002","P29_005":"滝根中学校","P29_006":"滝根町神俣中広土192","P29_007":3,"label":"滝根中"},"geometry":{"type":"Point","coordinates":[140.662788,37.325676]}},{"type":"Feature","properties":{"P29_001":"07211","P29_002":"16","P29_003":"16002","P29_004":"16002","P29_005":"都路中学校","P29_006":"船引町春山道之原51（旧春山小学校）","P29_007":3,"label":"都路中"},"geometry":{"type":"Point","coordinates":[140.54694319431732,37.43789089929664]}},{"type":"Feature","properties":{"P29_001":"07212","P29_002":"16","P29_003":"16002","P29_004":"16002","P29_005":"原町第一中学校","P29_006":"原町区南町3-23","P29_007":3,"label":"原町第一中"},"geometry":{"type":"Point","coordinates":[140.956208,37.631859]}},{"type":"Feature","properties":{"P29_001":"07212","P29_002":"16","P29_003":"16002","P29_004":"16002","P29_005":"原町第三中学校","P29_006":"原町区下太田川内前12-2","P29_007":3,"label":"原町第三中"},"geometry":{"type":"Point","coordinates":[140.982184,37.613371]}},{"type":"Feature","properties":{"P29_001":"07212","P29_002":"16","P29_003":"16002","P29_004":"16002","P29_005":"原町第二中学校","P29_006":"原町区桜井町1-152","P29_007":3,"label":"原町第二中"},"geometry":{"type":"Point","coordinates":[140.980718,37.637067]}},{"type":"Feature","properties":{"P29_001":"07212","P29_002":"16","P29_003":"16002","P29_004":"16002","P29_005":"鹿島中学校","P29_006":"鹿島区寺内落合28","P29_007":3,"label":"鹿島中"},"geometry":{"type":"Point","coordinates":[140.956353,37.705462]}},{"type":"Feature","properties":{"P29_001":"07212","P29_002":"16","P29_003":"16002","P29_004":"16002","P29_005":"小高中学校","P29_006":"鹿島区鹿島広町13（鹿島小学校内）","P29_007":3,"label":"小高中"},"geometry":{"type":"Point","coordinates":[140.9768333858696,37.70120489609778]}},{"type":"Feature","properties":{"P29_001":"07212","P29_002":"16","P29_003":"16002","P29_004":"16002","P29_005":"石神中学校","P29_006":"原町区石神北畑47-1","P29_007":3,"label":"石神中"},"geometry":{"type":"Point","coordinates":[140.933896,37.642794]}},{"type":"Feature","properties":{"P29_001":"07213","P29_002":"16","P29_003":"16002","P29_004":"16002","P29_005":"伊達中学校","P29_006":"箱崎沖110","P29_007":3,"label":"伊達中"},"geometry":{"type":"Point","coordinates":[140.515025,37.820758]}},{"type":"Feature","properties":{"P29_001":"07213","P29_002":"16","P29_003":"16002","P29_004":"16002","P29_005":"月舘中学校","P29_006":"月舘町月舘久保田1","P29_007":3,"label":"月舘中"},"geometry":{"type":"Point","coordinates":[140.60838,37.733139]}},{"type":"Feature","properties":{"P29_001":"07213","P29_002":"16","P29_003":"16002","P29_004":"16002","P29_005":"松陽中学校","P29_006":"保原町大柳向山1","P29_007":3,"label":"松陽中"},"geometry":{"type":"Point","coordinates":[140.554476,37.800188]}},{"type":"Feature","properties":{"P29_001":"07213","P29_002":"16","P29_003":"16002","P29_004":"16002","P29_005":"桃陵中学校","P29_006":"保原町豊田1-1","P29_007":3,"label":"桃陵中"},"geometry":{"type":"Point","coordinates":[140.558674,37.831825]}},{"type":"Feature","properties":{"P29_001":"07213","P29_002":"16","P29_003":"16002","P29_004":"16002","P29_005":"梁川中学校","P29_006":"梁川町菖蒲沢141-6","P29_007":3,"label":"梁川中"},"geometry":{"type":"Point","coordinates":[140.614186,37.854655]}},{"type":"Feature","properties":{"P29_001":"07213","P29_002":"16","P29_003":"16002","P29_004":"16002","P29_005":"霊山中学校","P29_006":"霊山町掛田下川原30","P29_007":3,"label":"霊山中"},"geometry":{"type":"Point","coordinates":[140.595293,37.788558]}},{"type":"Feature","properties":{"P29_001":"07214","P29_002":"16","P29_003":"16002","P29_004":"16002","P29_005":"白沢中学校","P29_006":"白岩白岩柳内835","P29_007":3,"label":"白沢中"},"geometry":{"type":"Point","coordinates":[140.4504527635867,37.50463386034083]}},{"type":"Feature","properties":{"P29_001":"07214","P29_002":"16","P29_003":"16002","P29_004":"16002","P29_005":"本宮第一中学校","P29_006":"本宮懸鉄15","P29_007":3,"label":"本宮第一中"},"geometry":{"type":"Point","coordinates":[140.391532,37.517303]}},{"type":"Feature","properties":{"P29_001":"07214","P29_002":"16","P29_003":"16002","P29_004":"16002","P29_005":"本宮第二中学校","P29_006":"本宮荒井団子森28","P29_007":3,"label":"本宮第二中"},"geometry":{"type":"Point","coordinates":[140.36715860755152,37.484740854839615]}}]}